{
	"tiks": [
		{
			"lon": 37.517014,
			"lat": 56.341972,
			"desc": "г. Дмитров, Советская, 4. (495) 993-79-21",
			"url": "http://www.moscow_reg.vybory.izbirkom.ru/region/moscow_reg?action=show_komissia&region=50&sub_region=50&type=100&vrnorg=250200090792&vrnkomis=450400616985",
			"name": "Дмитровского района"
		}
	],
	"uiks": [
		{
			"lon": 37.477222,
			"lat": 56.291115,
			"obj": "Яхромская средняя школа №2",
			"addr": "ул. Кирьянова, д. 12а",
			"phone": "5-17-57",
			"number": "1"
		},
		{
			"lon": 37.471947,
			"lat": 56.293953,
			"obj": "Помещение изостудии",
			"addr": "ул. Кирьянова, д. 32",
			"phone": "5-10-51",
			"number": "2"
		},
		{
			"lon": 37.486504,
			"lat": 56.290859,
			"obj": "ДК г. Яхромы",
			"addr": "ул. Заречная, 2",
			"phone": "5-20-10",
			"number": "3"
		},
		{
			"lon": 37.480904,
			"lat": 56.286594,
			"obj": "Вечерняя школа",
			"addr": "ул. Конярова, д. 31",
			"phone": "5-26-16",
			"number": "4"
		},
		{
			"lon": 37.478706,
			"lat": 56.285439,
			"obj": "Красный уголок Яхромского территориально-медицинского комплекса",
			"addr": "ул. Конярова, д. 9",
			"phone": "5-10-60",
			"number": "5"
		},
		{
			"lon": 37.491081,
			"lat": 56.283588,
			"obj": "Яхромская средняя школа №1",
			"addr": "микрорайон Левобережье, д. 17",
			"phone": "5-19-39",
			"number": "6"
		},
		{
			"lon": 37.479027,
			"lat": 56.296593,
			"obj": "Помещение красного уголка общежития",
			"addr": "ул. Бусалова, 8",
			"phone": "5-10-00",
			"number": "7"
		},
		{
			"lon": 37.482910,
			"lat": 56.279182,
			"obj": "Яхромская техшкола",
			"addr": "ул. Большевистская, д. 16",
			"phone": "5-27-79",
			"number": "8"
		},
		{
			"lon": 37.485641,
			"lat": 56.280701,
			"obj": "Здание проходной ЗАО «Яхромский автобусный завод»",
			"addr": "ул. Ленина, д. 42",
			"phone": "5-12-70",
			"number": "9"
		},
		{
			"lon": 37.512669,
			"lat": 56.289982,
			"obj": "Яхромская средняя школа №3",
			"addr": "ул. Семешинская, д. 1",
			"phone": "5-28-66",
			"number": "10"
		},
		{
			"lon": 37.430737,
			"lat": 56.305706,
			"obj": "ОАО «Гамма»",
			"addr": "деревня Астрецово",
			"phone": "5-76-41",
			"number": "11"
		},
		{
			"lon": 37.341927,
			"lat": 56.270527,
			"obj": "Помещение клуба ОАО «Апраксин центр»",
			"addr": "село Ольгово, стр. 92, корп. 11",
			"phone": "5-75-48",
			"number": "12"
		},
		{
			"lon": 37.474152,
			"lat": 56.267902,
			"obj": "Спортивно-развлекательный парк «Яхрома»",
			"addr": "деревня Степаново",
			"phone": "981-89-39",
			"number": "13"
		},
		{
			"lon": 37.249645,
			"lat": 56.263130,
			"obj": "Школа села Подъячево",
			"addr": "село Подъячево",
			"phone": "5-71-45.",
			"number": "14"
		}
	]
}
